{
"type": "FeatureCollection",
"name": "estaciones2",
"crs": { "type": "name", "properties": { "name": "urn:ogc:def:crs:OGC:1.3:CRS84" } },
"features": [
{ "type": "Feature", "properties": { "Name": "CNX PRG", "description": null, "timestamp": null, "begin": null, "end": null, "altitudeMode": null, "tessellate": -1, "extrude": 0, "visibility": -1, "drawOrder": null, "icon": null, "gx_media_links": null }, "geometry": { "type": "Point", "coordinates": [ -55.864289, -27.370151, 0.0 ] } },
{ "type": "Feature", "properties": { "Name": "GARUPA (UB \/ 581,555)", "description": null, "timestamp": null, "begin": null, "end": null, "altitudeMode": null, "tessellate": -1, "extrude": 0, "visibility": -1, "drawOrder": null, "icon": null, "gx_media_links": null }, "geometry": { "type": "Point", "coordinates": [ -55.825656, -27.48475, 0.0 ] } },
{ "type": "Feature", "properties": { "Name": "PINDAPOY (UB \/", "description": null, "timestamp": null, "begin": null, "end": null, "altitudeMode": null, "tessellate": -1, "extrude": 0, "visibility": -1, "drawOrder": null, "icon": null, "gx_media_links": null }, "geometry": { "type": "Point", "coordinates": [ -55.795649, -27.749923, 0.0 ] } },
{ "type": "Feature", "properties": { "Name": "APOSTOLES (UB \/ 525,877)", "description": null, "timestamp": null, "begin": null, "end": null, "altitudeMode": null, "tessellate": -1, "extrude": 0, "visibility": -1, "drawOrder": null, "icon": null, "gx_media_links": null }, "geometry": { "type": "Point", "coordinates": [ -55.811882, -27.914525, 0.0 ] } },
{ "type": "Feature", "properties": { "Name": "G VIRASORO (UB \/ 495,618)", "description": null, "timestamp": null, "begin": null, "end": null, "altitudeMode": null, "tessellate": -1, "extrude": 0, "visibility": -1, "drawOrder": null, "icon": null, "gx_media_links": null }, "geometry": { "type": "Point", "coordinates": [ -56.02612, -28.053035, 0.0 ] } },
{ "type": "Feature", "properties": { "Name": "CAZA PAVA (UB \/ 466,592)", "description": null, "timestamp": null, "begin": null, "end": null, "altitudeMode": null, "tessellate": -1, "extrude": 0, "visibility": -1, "drawOrder": null, "icon": null, "gx_media_links": null }, "geometry": { "type": "Point", "coordinates": [ -56.114245, -28.291266, 0.0 ] } },
{ "type": "Feature", "properties": { "Name": "SANTO TOME (UB \/ 435,456)", "description": null, "timestamp": null, "begin": null, "end": null, "altitudeMode": null, "tessellate": -1, "extrude": 0, "visibility": -1, "drawOrder": null, "icon": null, "gx_media_links": null }, "geometry": { "type": "Point", "coordinates": [ -56.061424, -28.550811, 0.0 ] } },
{ "type": "Feature", "properties": { "Name": "TORRENT (UB \/ 380,645)", "description": null, "timestamp": null, "begin": null, "end": null, "altitudeMode": null, "tessellate": -1, "extrude": 0, "visibility": -1, "drawOrder": null, "icon": null, "gx_media_links": null }, "geometry": { "type": "Point", "coordinates": [ -56.470573, -28.826286, 0.0 ] } },
{ "type": "Feature", "properties": { "Name": "ALVEAR (UB \/ 350,866)", "description": null, "timestamp": null, "begin": null, "end": null, "altitudeMode": null, "tessellate": -1, "extrude": 0, "visibility": -1, "drawOrder": null, "icon": null, "gx_media_links": null }, "geometry": { "type": "Point", "coordinates": [ -56.544378, -29.085477, 0.0 ] } },
{ "type": "Feature", "properties": { "Name": "LA CRUZ (UB \/ 335,971)", "description": null, "timestamp": null, "begin": null, "end": null, "altitudeMode": null, "tessellate": -1, "extrude": 0, "visibility": -1, "drawOrder": null, "icon": null, "gx_media_links": null }, "geometry": { "type": "Point", "coordinates": [ -56.647231, -29.169528, 0.0 ] } },
{ "type": "Feature", "properties": { "Name": "25 DE FEBRERO (UB \/ 306,013)", "description": null, "timestamp": null, "begin": null, "end": null, "altitudeMode": null, "tessellate": -1, "extrude": 0, "visibility": -1, "drawOrder": null, "icon": null, "gx_media_links": null }, "geometry": { "type": "Point", "coordinates": [ -56.829936, -29.366835, 0.0 ] } },
{ "type": "Feature", "properties": { "Name": "TAPEBICUA (UB \/ 283,463)", "description": null, "timestamp": null, "begin": null, "end": null, "altitudeMode": null, "tessellate": -1, "extrude": 0, "visibility": -1, "drawOrder": null, "icon": null, "gx_media_links": null }, "geometry": { "type": "Point", "coordinates": [ -56.977283, -29.504484, 0.0 ] } },
{ "type": "Feature", "properties": { "Name": "PASO DE LOS LIBRES (UB \/ 251,412)", "description": null, "timestamp": null, "begin": null, "end": null, "altitudeMode": null, "tessellate": -1, "extrude": 0, "visibility": -1, "drawOrder": null, "icon": null, "gx_media_links": null }, "geometry": { "type": "Point", "coordinates": [ -57.100655, -29.714906, 0.0 ] } },
{ "type": "Feature", "properties": { "Name": "BONPLAND (UB \/ 215,549)", "description": null, "timestamp": null, "begin": null, "end": null, "altitudeMode": null, "tessellate": -1, "extrude": 0, "visibility": -1, "drawOrder": null, "icon": null, "gx_media_links": null }, "geometry": { "type": "Point", "coordinates": [ -57.430453, -29.818672, 0.0 ] } },
{ "type": "Feature", "properties": { "Name": "MONTE CASEROS (UC \/ 153,244)", "description": null, "timestamp": null, "begin": null, "end": null, "altitudeMode": null, "tessellate": -1, "extrude": 0, "visibility": -1, "drawOrder": null, "icon": null, "gx_media_links": null }, "geometry": { "type": "Point", "coordinates": [ -57.648093, -30.248432, 0.0 ] } },
{ "type": "Feature", "properties": { "Name": "LIBERTAD (U34 \/ 186,488)", "description": "<img src=\"https:\/\/doc-0k-9g-mymaps.googleusercontent.com\/untrusted\/hostedimage\/7vc4el014tga9com68il6lospg\/i6pk9lg61l53suieqpu95pp25o\/1642702187750\/M5Qa7fh-VszL0MrnwVLjwgHT-3mS_t-C\/06146192793762281435\/5AIsG_vbSaDqooswKQ0XLg5wusQEP9qk6HDCYJ_wTUrk9UKaHdPj_4HnXCP0x_sCqtll0KgQYTvWSn0w-3QqNm2pOCzjnG2eiYdbA9fumL5B0xgoK2KIn6m4cz8edlifOYirf6ExVHO8mF-mwqkKVVkP5bYMLg8W1r6zt-vY4AuBWsh9ZmaWBO5t4kQWDu6OpjYD2Oic?session=0&fife\" height=\"200\" width=\"auto\" \/><br><br>UNA DESCRIPCIÓN<br><br><img src=\"https:\/\/doc-04-9g-mymaps.googleusercontent.com\/untrusted\/hostedimage\/7vc4el014tga9com68il6lospg\/do06hu7h5v89377q22vgpfjnfo\/1642702187750\/M5Qa7fh-VszL0MrnwVLjwgHT-3mS_t-C\/06146192793762281435\/5AIsG_vZ74szhBZ6I_Qe0YIpI5uWfjd224FVkro1WjWUWqdrfjrShOxWox2f1ad6OPcHOPDcWDRChewIp95Pv9QOgD21As3COFj5-Q2Zvrp0CBqgku5D3uivJBA1YNbd9Cii5jUQpvKVsc6NwiEWmuWorKqMxdQWYBRceX0zpL3k2abwl__L0CZjUhg38bSeIThrZA5Sp?session=0&fife\" height=\"200\" width=\"auto\" \/>", "timestamp": null, "begin": null, "end": null, "altitudeMode": null, "tessellate": -1, "extrude": 0, "visibility": -1, "drawOrder": null, "icon": null, "gx_media_links": "https:\/\/doc-0k-9g-mymaps.googleusercontent.com\/untrusted\/hostedimage\/7vc4el014tga9com68il6lospg\/i6pk9lg61l53suieqpu95pp25o\/1642702187750\/M5Qa7fh-VszL0MrnwVLjwgHT-3mS_t-C\/06146192793762281435\/5AIsG_vbSaDqooswKQ0XLg5wusQEP9qk6HDCYJ_wTUrk9UKaHdPj_4HnXCP0x_sCqtll0KgQYTvWSn0w-3QqNm2pOCzjnG2eiYdbA9fumL5B0xgoK2KIn6m4cz8edlifOYirf6ExVHO8mF-mwqkKVVkP5bYMLg8W1r6zt-vY4AuBWsh9ZmaWBO5t4kQWDu6OpjYD2Oic?session=0&fife https:\/\/doc-04-9g-mymaps.googleusercontent.com\/untrusted\/hostedimage\/7vc4el014tga9com68il6lospg\/do06hu7h5v89377q22vgpfjnfo\/1642702187750\/M5Qa7fh-VszL0MrnwVLjwgHT-3mS_t-C\/06146192793762281435\/5AIsG_vZ74szhBZ6I_Qe0YIpI5uWfjd224FVkro1WjWUWqdrfjrShOxWox2f1ad6OPcHOPDcWDRChewIp95Pv9QOgD21As3COFj5-Q2Zvrp0CBqgku5D3uivJBA1YNbd9Cii5jUQpvKVsc6NwiEWmuWorKqMxdQWYBRceX0zpL3k2abwl__L0CZjUhg38bSeIThrZA5Sp?session=0&fife" }, "geometry": { "type": "Point", "coordinates": [ -57.824853, -30.046535, 0.0 ] } },
{ "type": "Feature", "properties": { "Name": "ACUÑA (U34 \/ 201,478)", "description": null, "timestamp": null, "begin": null, "end": null, "altitudeMode": null, "tessellate": -1, "extrude": 0, "visibility": -1, "drawOrder": null, "icon": null, "gx_media_links": null }, "geometry": { "type": "Point", "coordinates": [ -57.956599, -29.907979, 0.0 ] } },
{ "type": "Feature", "properties": { "Name": "CURUZU CUATIA (U34 \/ 216,899)", "description": null, "timestamp": null, "begin": null, "end": null, "altitudeMode": null, "tessellate": -1, "extrude": 0, "visibility": -1, "drawOrder": null, "icon": null, "gx_media_links": null }, "geometry": { "type": "Point", "coordinates": [ -58.045479, -29.790021, 0.0 ] } },
{ "type": "Feature", "properties": { "Name": "MOCORETA (UC \/ 98,425)", "description": null, "timestamp": null, "begin": null, "end": null, "altitudeMode": null, "tessellate": -1, "extrude": 0, "visibility": -1, "drawOrder": null, "icon": null, "gx_media_links": null }, "geometry": { "type": "Point", "coordinates": [ -57.967034, -30.620834, 0.0 ] } },
{ "type": "Feature", "properties": { "Name": "CHAJARI (UC \/ 82,456)", "description": null, "timestamp": null, "begin": null, "end": null, "altitudeMode": null, "tessellate": -1, "extrude": 0, "visibility": -1, "drawOrder": null, "icon": null, "gx_media_links": null }, "geometry": { "type": "Point", "coordinates": [ -57.980285, -30.762215, 0.0 ] } },
{ "type": "Feature", "properties": { "Name": "SANTA ANA (UC \/ 72,319)", "description": null, "timestamp": null, "begin": null, "end": null, "altitudeMode": null, "tessellate": -1, "extrude": 0, "visibility": -1, "drawOrder": null, "icon": null, "gx_media_links": null }, "geometry": { "type": "Point", "coordinates": [ -58.010221, -30.842619, 0.0 ] } },
{ "type": "Feature", "properties": { "Name": "FEDERACION (UC \/ 53,807)", "description": null, "timestamp": null, "begin": null, "end": null, "altitudeMode": null, "tessellate": -1, "extrude": 0, "visibility": -1, "drawOrder": null, "icon": null, "gx_media_links": null }, "geometry": { "type": "Point", "coordinates": [ -58.057562, -30.990867, 0.0 ] } },
{ "type": "Feature", "properties": { "Name": "ISTHILART (UC \/ 35,785)", "description": null, "timestamp": null, "begin": null, "end": null, "altitudeMode": null, "tessellate": -1, "extrude": 0, "visibility": -1, "drawOrder": null, "icon": null, "gx_media_links": null }, "geometry": { "type": "Point", "coordinates": [ -58.115166, -31.134483, 0.0 ] } },
{ "type": "Feature", "properties": { "Name": "LA CRIOLLA (UC \/ 20,100)", "description": null, "timestamp": null, "begin": null, "end": null, "altitudeMode": null, "tessellate": -1, "extrude": 0, "visibility": -1, "drawOrder": null, "icon": null, "gx_media_links": null }, "geometry": { "type": "Point", "coordinates": [ -58.106735, -31.266676, 0.0 ] } },
{ "type": "Feature", "properties": { "Name": "O MAGNASCO (UC \/ 12,400)", "description": null, "timestamp": null, "begin": null, "end": null, "altitudeMode": null, "tessellate": -1, "extrude": 0, "visibility": -1, "drawOrder": null, "icon": null, "gx_media_links": null }, "geometry": { "type": "Point", "coordinates": [ -58.057822, -31.312884, 0.0 ] } },
{ "type": "Feature", "properties": { "Name": "CONCORDIA (UC \/ 394,384)", "description": null, "timestamp": null, "begin": null, "end": null, "altitudeMode": null, "tessellate": -1, "extrude": 0, "visibility": -1, "drawOrder": null, "icon": null, "gx_media_links": null }, "geometry": { "type": "Point", "coordinates": [ -58.012589, -31.403543, 0.0 ] } },
{ "type": "Feature", "properties": { "Name": "YUQUERI (UB \/ 381,800)", "description": null, "timestamp": null, "begin": null, "end": null, "altitudeMode": null, "tessellate": -1, "extrude": 0, "visibility": -1, "drawOrder": null, "icon": null, "gx_media_links": null }, "geometry": { "type": "Point", "coordinates": [ -58.119231, -31.383269, 0.0 ] } },
{ "type": "Feature", "properties": { "Name": "AYUI (18,700)", "description": null, "timestamp": null, "begin": null, "end": null, "altitudeMode": null, "tessellate": -1, "extrude": 0, "visibility": -1, "drawOrder": null, "icon": null, "gx_media_links": null }, "geometry": { "type": "Point", "coordinates": [ -57.967733, -31.259919, 0.0 ] } },
{ "type": "Feature", "properties": { "Name": "CNX URUGUAY", "description": null, "timestamp": null, "begin": null, "end": null, "altitudeMode": null, "tessellate": -1, "extrude": 0, "visibility": -1, "drawOrder": null, "icon": null, "gx_media_links": null }, "geometry": { "type": "Point", "coordinates": [ -57.938461, -31.275147, 0.0 ] } },
{ "type": "Feature", "properties": { "Name": "G CAMPOS (UB \/ 349,708)", "description": null, "timestamp": null, "begin": null, "end": null, "altitudeMode": null, "tessellate": -1, "extrude": 0, "visibility": -1, "drawOrder": null, "icon": null, "gx_media_links": null }, "geometry": { "type": "Point", "coordinates": [ -58.401974, -31.525876, 0.0 ] } },
{ "type": "Feature", "properties": { "Name": "YERUA (UB \/ 364,522)", "description": null, "timestamp": null, "begin": null, "end": null, "altitudeMode": null, "tessellate": -1, "extrude": 0, "visibility": -1, "drawOrder": null, "icon": null, "gx_media_links": null }, "geometry": { "type": "Point", "coordinates": [ -58.263143, -31.471199, 0.0 ] } },
{ "type": "Feature", "properties": { "Name": "SAN SALVADOR (UB \/ 334,487)", "description": null, "timestamp": null, "begin": null, "end": null, "altitudeMode": null, "tessellate": -1, "extrude": 0, "visibility": -1, "drawOrder": null, "icon": null, "gx_media_links": null }, "geometry": { "type": "Point", "coordinates": [ -58.503919, -31.629123, 0.0 ] } },
{ "type": "Feature", "properties": { "Name": "VILLAGUAY (UB \/ 279,112)", "description": null, "timestamp": null, "begin": null, "end": null, "altitudeMode": null, "tessellate": -1, "extrude": 0, "visibility": -1, "drawOrder": null, "icon": null, "gx_media_links": null }, "geometry": { "type": "Point", "coordinates": [ -58.994027, -31.890762, 0.0 ] } },
{ "type": "Feature", "properties": { "Name": "DOMINGUEZ (UB \/ 267,903)", "description": null, "timestamp": null, "begin": null, "end": null, "altitudeMode": null, "tessellate": -1, "extrude": 0, "visibility": -1, "drawOrder": null, "icon": null, "gx_media_links": null }, "geometry": { "type": "Point", "coordinates": [ -58.967067, -31.988928, 0.0 ] } },
{ "type": "Feature", "properties": { "Name": "BASAVILBASO (UB \/ 222,586)", "description": null, "timestamp": null, "begin": null, "end": null, "altitudeMode": null, "tessellate": -1, "extrude": 0, "visibility": -1, "drawOrder": null, "icon": null, "gx_media_links": null }, "geometry": { "type": "Point", "coordinates": [ -58.880465, -32.377441, 0.0 ] } },
{ "type": "Feature", "properties": { "Name": "URDINARRAIN (UB \/ 260,138)", "description": null, "timestamp": null, "begin": null, "end": null, "altitudeMode": null, "tessellate": -1, "extrude": 0, "visibility": -1, "drawOrder": null, "icon": null, "gx_media_links": null }, "geometry": { "type": "Point", "coordinates": [ -58.891772, -32.684847, 0.0 ] } },
{ "type": "Feature", "properties": { "Name": "FM PARERA (UB \/ 274,280)", "description": null, "timestamp": null, "begin": null, "end": null, "altitudeMode": null, "tessellate": -1, "extrude": 0, "visibility": -1, "drawOrder": null, "icon": null, "gx_media_links": null }, "geometry": { "type": "Point", "coordinates": [ -58.882601, -32.804089, 0.0 ] } },
{ "type": "Feature", "properties": { "Name": "IRAZUSTA (UB \/ 289,728)", "description": null, "timestamp": null, "begin": null, "end": null, "altitudeMode": null, "tessellate": -1, "extrude": 0, "visibility": -1, "drawOrder": null, "icon": null, "gx_media_links": null }, "geometry": { "type": "Point", "coordinates": [ -58.950163, -32.926239, 0.0 ] } },
{ "type": "Feature", "properties": { "Name": "LARROQUE (UB \/ 303,293)", "description": null, "timestamp": null, "begin": null, "end": null, "altitudeMode": null, "tessellate": -1, "extrude": 0, "visibility": -1, "drawOrder": null, "icon": null, "gx_media_links": null }, "geometry": { "type": "Point", "coordinates": [ -59.004999, -33.034697, 0.0 ] } },
{ "type": "Feature", "properties": { "Name": "E CARBO (UB \/ 313,634)", "description": null, "timestamp": null, "begin": null, "end": null, "altitudeMode": null, "tessellate": -1, "extrude": 0, "visibility": -1, "drawOrder": null, "icon": null, "gx_media_links": null }, "geometry": { "type": "Point", "coordinates": [ -59.208182, -33.145528, 0.0 ] } },
{ "type": "Feature", "properties": { "Name": "MEDANOS (UB \/ 349,792)", "description": null, "timestamp": null, "begin": null, "end": null, "altitudeMode": null, "tessellate": -1, "extrude": 0, "visibility": -1, "drawOrder": null, "icon": null, "gx_media_links": null }, "geometry": { "type": "Point", "coordinates": [ -59.068947, -33.436012, 0.0 ] } },
{ "type": "Feature", "properties": { "Name": "LG SAN MARTIN (UB \/ 381,200)", "description": null, "timestamp": null, "begin": null, "end": null, "altitudeMode": null, "tessellate": -1, "extrude": 0, "visibility": -1, "drawOrder": null, "icon": null, "gx_media_links": null }, "geometry": { "type": "Point", "coordinates": [ -59.033177, -33.709282, 0.0 ] } },
{ "type": "Feature", "properties": { "Name": "BRAZO LARGO (UA \/ 137,980)", "description": null, "timestamp": null, "begin": null, "end": null, "altitudeMode": null, "tessellate": -1, "extrude": 0, "visibility": -1, "drawOrder": null, "icon": null, "gx_media_links": null }, "geometry": { "type": "Point", "coordinates": [ -58.946989, -33.862294, 0.0 ] } },
{ "type": "Feature", "properties": { "Name": "TALAVERA (UA \/ 119,780)", "description": null, "timestamp": null, "begin": null, "end": null, "altitudeMode": null, "tessellate": -1, "extrude": 0, "visibility": -1, "drawOrder": null, "icon": null, "gx_media_links": null }, "geometry": { "type": "Point", "coordinates": [ -58.955369, -33.954565, 0.0 ] } },
{ "type": "Feature", "properties": { "Name": "ZARATE (UA \/ 99,140)", "description": null, "timestamp": null, "begin": null, "end": null, "altitudeMode": null, "tessellate": -1, "extrude": 0, "visibility": -1, "drawOrder": null, "icon": null, "gx_media_links": null }, "geometry": { "type": "Point", "coordinates": [ -59.027733, -34.121874, 0.0 ] } },
{ "type": "Feature", "properties": { "Name": "HOLT (UF \/ 395,764)", "description": null, "timestamp": null, "begin": null, "end": null, "altitudeMode": null, "tessellate": -1, "extrude": 0, "visibility": -1, "drawOrder": null, "icon": null, "gx_media_links": null }, "geometry": { "type": "Point", "coordinates": [ -59.15451, -33.747049, 0.0 ] } }
]
}
